{"features": [{"geometry": {"coordinates": [-8.598349, 41.1488], "type": "Point"}, "properties": {"stop_id": 5697, "stop_name": "24 de Agosto", "zone_id": "PRT1"}, "type": "Feature"}, {"geometry": {"coordinates": [-8.545892, 41.18557], "type": "Point"}, "properties": {"stop_id": 5698, "stop_name": "Baguim", "zone_id": "MAI4"}, "type": "Feature"}, {"geometry": {"coordinates": [-8.605901, 41.14978], "type": "Point"}, "properties": {"stop_id": 5699, "stop_name": "Bolhão", "zone_id": "PRT1"}, "type": "Feature"}, {"geometry": {"coordinates": [-8.691469, 41.18391], "type": "Point"}, "properties": {"stop_id": 5700, "stop_name": "Brito Capelo", "zone_id": "MTS1"}, "type": "Feature"}, {"geometry": {"coordinates": [-8.681227, 41.1807], "type": "Point"}, "properties": {"stop_id": 5701, "stop_name": "Câmara Matosinhos", "zone_id": "MTS1"}, "type": "Feature"}, {"geometry": {"coordinates": [-8.553955, 41.18345], "type": "Point"}, "properties": {"stop_id": 5702, "stop_name": "Campainha", "zone_id": "MAI4"}, "type": "Feature"}, {"geometry": {"coordinates": [-8.586245, 41.15054], "type": "Point"}, "properties": {"stop_id": 5703, "stop_name": "Campanhã", "zone_id": "PRT1"}, "type": "Feature"}, {"geometry": {"coordinates": [-8.622246, 41.15858], "type": "Point"}, "properties": {"stop_id": 5704, "stop_name": "Carolina Michaelis", "zone_id": "PRT1"}, "type": "Feature"}, {"geometry": {"coordinates": [-8.543604, 41.17982], "type": "Point"}, "properties": {"stop_id": 5705, "stop_name": "Carreira", "zone_id": "MAI4"}, "type": "Feature"}, {"geometry": {"coordinates": [-8.628282, 41.16058], "type": "Point"}, "properties": {"stop_id": 5706, "stop_name": "Casa da Música", "zone_id": "PRT1"}, "type": "Feature"}, {"geometry": {"coordinates": [-8.578639, 41.16571], "type": "Point"}, "properties": {"stop_id": 5707, "stop_name": "Contumil", "zone_id": "PRT3"}, "type": "Feature"}, {"geometry": {"coordinates": [-8.582416, 41.16072], "type": "Point"}, "properties": {"stop_id": 5708, "stop_name": "Estádio do Dragão", "zone_id": "PRT1"}, "type": "Feature"}, {"geometry": {"coordinates": [-8.661189, 41.18577], "type": "Point"}, "properties": {"stop_id": 5709, "stop_name": "Estádio do Mar", "zone_id": "MTS1"}, "type": "Feature"}, {"geometry": {"coordinates": [-8.542938, 41.1713], "type": "Point"}, "properties": {"stop_id": 5710, "stop_name": "Fânzeres", "zone_id": "GDM1"}, "type": "Feature"}, {"geometry": {"coordinates": [-8.636347, 41.16555], "type": "Point"}, "properties": {"stop_id": 5711, "stop_name": "Francos", "zone_id": "PRT1"}, "type": "Feature"}, {"geometry": {"coordinates": [-8.592978, 41.1467], "type": "Point"}, "properties": {"stop_id": 5712, "stop_name": "Heroísmo", "zone_id": "PRT1"}, "type": "Feature"}, {"geometry": {"coordinates": [-8.616723, 41.15711], "type": "Point"}, "properties": {"stop_id": 5713, "stop_name": "Lapa", "zone_id": "PRT1"}, "type": "Feature"}, {"geometry": {"coordinates": [-8.56212, 41.17576], "type": "Point"}, "properties": {"stop_id": 5714, "stop_name": "Levada", "zone_id": "MAI4"}, "type": "Feature"}, {"geometry": {"coordinates": [-8.688553, 41.18017], "type": "Point"}, "properties": {"stop_id": 5715, "stop_name": "Matosinhos Sul", "zone_id": "MTS1"}, "type": "Feature"}, {"geometry": {"coordinates": [-8.693391, 41.18748], "type": "Point"}, "properties": {"stop_id": 5716, "stop_name": "Mercado", "zone_id": "MTS1"}, "type": "Feature"}, {"geometry": {"coordinates": [-8.577317, 41.17077], "type": "Point"}, "properties": {"stop_id": 5717, "stop_name": "Nasoni", "zone_id": "PRT3"}, "type": "Feature"}, {"geometry": {"coordinates": [-8.573534, 41.17412], "type": "Point"}, "properties": {"stop_id": 5718, "stop_name": "Nau Vitória", "zone_id": "PRT3"}, "type": "Feature"}, {"geometry": {"coordinates": [-8.673546, 41.17911], "type": "Point"}, "properties": {"stop_id": 5719, "stop_name": "Parque de Real", "zone_id": "MTS1"}, "type": "Feature"}, {"geometry": {"coordinates": [-8.666232, 41.18038], "type": "Point"}, "properties": {"stop_id": 5720, "stop_name": "Pedro Hispano", "zone_id": "MTS1"}, "type": "Feature"}, {"geometry": {"coordinates": [-8.641766, 41.17296], "type": "Point"}, "properties": {"stop_id": 5721, "stop_name": "Ramalde", "zone_id": "PRT2"}, "type": "Feature"}, {"geometry": {"coordinates": [-8.560264, 41.17942], "type": "Point"}, "properties": {"stop_id": 5722, "stop_name": "Rio Tinto", "zone_id": "MAI4"}, "type": "Feature"}, {"geometry": {"coordinates": [-8.685123, 41.18821], "type": "Point"}, "properties": {"stop_id": 5723, "stop_name": "Senhor de Matosinhos", "zone_id": "MTS1"}, "type": "Feature"}, {"geometry": {"coordinates": [-8.654466, 41.1881], "type": "Point"}, "properties": {"stop_id": 5724, "stop_name": "Senhora da Hora", "zone_id": "PRT2"}, "type": "Feature"}, {"geometry": {"coordinates": [-8.652149, 41.18242], "type": "Point"}, "properties": {"stop_id": 5725, "stop_name": "NorteShopping I Sete Bicas", "zone_id": "PRT2"}, "type": "Feature"}, {"geometry": {"coordinates": [-8.609299, 41.15228], "type": "Point"}, "properties": {"stop_id": 5726, "stop_name": "Trindade", "zone_id": "PRT1"}, "type": "Feature"}, {"geometry": {"coordinates": [-8.661037, 41.19024], "type": "Point"}, "properties": {"stop_id": 5727, "stop_name": "Vasco da Gama", "zone_id": "MTS1"}, "type": "Feature"}, {"geometry": {"coordinates": [-8.541962, 41.17516], "type": "Point"}, "properties": {"stop_id": 5728, "stop_name": "Venda Nova", "zone_id": "GDM1"}, "type": "Feature"}, {"geometry": {"coordinates": [-8.646498, 41.17725], "type": "Point"}, "properties": {"stop_id": 5729, "stop_name": "Viso", "zone_id": "PRT2"}, "type": "Feature"}, {"geometry": {"coordinates": [-8.745225, 41.36464], "type": "Point"}, "properties": {"stop_id": 5730, "stop_name": "Alto de Pega", "zone_id": "PV_VC"}, "type": "Feature"}, {"geometry": {"coordinates": [-8.725555, 41.3404], "type": "Point"}, "properties": {"stop_id": 5731, "stop_name": "Árvore", "zone_id": "VCD3"}, "type": "Feature"}, {"geometry": {"coordinates": [-8.728122, 41.34597], "type": "Point"}, "properties": {"stop_id": 5732, "stop_name": "Azurara", "zone_id": "VCD3"}, "type": "Feature"}, {"geometry": {"coordinates": [-8.656593, 41.23301], "type": "Point"}, "properties": {"stop_id": 5733, "stop_name": "Crestins", "zone_id": "VCD8"}, "type": "Feature"}, {"geometry": {"coordinates": [-8.655559, 41.20029], "type": "Point"}, "properties": {"stop_id": 5734, "stop_name": "Custóias", "zone_id": "MAI1"}, "type": "Feature"}, {"geometry": {"coordinates": [-8.718681, 41.32122], "type": "Point"}, "properties": {"stop_id": 5735, "stop_name": "Espaço Natureza", "zone_id": "VCD3"}, "type": "Feature"}, {"geometry": {"coordinates": [-8.654541, 41.21607], "type": "Point"}, "properties": {"stop_id": 5736, "stop_name": "Esposade", "zone_id": "MAI1"}, "type": "Feature"}, {"geometry": {"coordinates": [-8.655771, 41.19416], "type": "Point"}, "properties": {"stop_id": 5737, "stop_name": "Fonte do Cuco", "zone_id": "MAI1"}, "type": "Feature"}, {"geometry": {"coordinates": [-8.668018, 41.25495], "type": "Point"}, "properties": {"stop_id": 5739, "stop_name": "Lidador", "zone_id": "VCD8"}, "type": "Feature"}, {"geometry": {"coordinates": [-8.714209, 41.31508], "type": "Point"}, "properties": {"stop_id": 5740, "stop_name": "Mindelo", "zone_id": "VCD3"}, "type": "Feature"}, {"geometry": {"coordinates": [-8.699238, 41.29368], "type": "Point"}, "properties": {"stop_id": 5741, "stop_name": "Modivas Centro", "zone_id": "VCD8"}, "type": "Feature"}, {"geometry": {"coordinates": [-8.704004, 41.30049], "type": "Point"}, "properties": {"stop_id": 5742, "stop_name": "VC Fashion Outlet I Modivas", "zone_id": "VCD8"}, "type": "Feature"}, {"geometry": {"coordinates": [-8.693703, 41.28525], "type": "Point"}, "properties": {"stop_id": 5743, "stop_name": "Modivas Sul", "zone_id": "VCD8"}, "type": "Feature"}, {"geometry": {"coordinates": [-8.661807, 41.24623], "type": "Point"}, "properties": {"stop_id": 5744, "stop_name": "Pedras Rubras", "zone_id": "VCD8"}, "type": "Feature"}, {"geometry": {"coordinates": [-8.749558, 41.36895], "type": "Point"}, "properties": {"stop_id": 5745, "stop_name": "Portas Fronhas", "zone_id": "PV_VC"}, "type": "Feature"}, {"geometry": {"coordinates": [-8.758081, 41.37812], "type": "Point"}, "properties": {"stop_id": 5746, "stop_name": "Póvoa de Varzim", "zone_id": "PV_VC"}, "type": "Feature"}, {"geometry": {"coordinates": [-8.735826, 41.35398], "type": "Point"}, "properties": {"stop_id": 5747, "stop_name": "Santa Clara", "zone_id": "PV_VC"}, "type": "Feature"}, {"geometry": {"coordinates": [-8.754122, 41.37346], "type": "Point"}, "properties": {"stop_id": 5748, "stop_name": "São Brás", "zone_id": "PV_VC"}, "type": "Feature"}, {"geometry": {"coordinates": [-8.720721, 41.33422], "type": "Point"}, "properties": {"stop_id": 5749, "stop_name": "Varziela", "zone_id": "VCD3"}, "type": "Feature"}, {"geometry": {"coordinates": [-8.658212, 41.23825], "type": "Point"}, "properties": {"stop_id": 5750, "stop_name": "Verdes", "zone_id": "VCD8"}, "type": "Feature"}, {"geometry": {"coordinates": [-8.73987, 41.3591], "type": "Point"}, "properties": {"stop_id": 5752, "stop_name": "Vila do Conde", "zone_id": "PV_VC"}, "type": "Feature"}, {"geometry": {"coordinates": [-8.679515, 41.2703], "type": "Point"}, "properties": {"stop_id": 5753, "stop_name": "Vilar do Pinheiro", "zone_id": "VCD8"}, "type": "Feature"}, {"geometry": {"coordinates": [-8.640978, 41.21691], "type": "Point"}, "properties": {"stop_id": 5754, "stop_name": "Araújo", "zone_id": "MAI1"}, "type": "Feature"}, {"geometry": {"coordinates": [-8.649703, 41.2007], "type": "Point"}, "properties": {"stop_id": 5755, "stop_name": "Cândido dos Reis", "zone_id": "MAI1"}, "type": "Feature"}, {"geometry": {"coordinates": [-8.616986, 41.26275], "type": "Point"}, "properties": {"stop_id": 5756, "stop_name": "Castêlo da Maia", "zone_id": "MAI2"}, "type": "Feature"}, {"geometry": {"coordinates": [-8.638996, 41.22234], "type": "Point"}, "properties": {"stop_id": 5757, "stop_name": "Custió", "zone_id": "MAI1"}, "type": "Feature"}, {"geometry": {"coordinates": [-8.623937, 41.23463], "type": "Point"}, "properties": {"stop_id": 5760, "stop_name": "Fórum Maia", "zone_id": "MAI1"}, "type": "Feature"}, {"geometry": {"coordinates": [-8.615387, 41.26891], "type": "Point"}, "properties": {"stop_id": 5761, "stop_name": "ISMAI", "zone_id": "MAI2"}, "type": "Feature"}, {"geometry": {"coordinates": [-8.628308, 41.25358], "type": "Point"}, "properties": {"stop_id": 5762, "stop_name": "Mandim", "zone_id": "MAI2"}, "type": "Feature"}, {"geometry": {"coordinates": [-8.626897, 41.22902], "type": "Point"}, "properties": {"stop_id": 5763, "stop_name": "Parque Maia", "zone_id": "MAI1"}, "type": "Feature"}, {"geometry": {"coordinates": [-8.647122, 41.20823], "type": "Point"}, "properties": {"stop_id": 5764, "stop_name": "Pias", "zone_id": "MAI1"}, "type": "Feature"}, {"geometry": {"coordinates": [-8.628555, 41.24397], "type": "Point"}, "properties": {"stop_id": 5765, "stop_name": "Zona Indústrial", "zone_id": "MAI2"}, "type": "Feature"}, {"geometry": {"coordinates": [-8.610945, 41.14858], "type": "Point"}, "properties": {"stop_id": 5766, "stop_name": "Aliados", "zone_id": "PRT1"}, "type": "Feature"}, {"geometry": {"coordinates": [-8.606116, 41.12967], "type": "Point"}, "properties": {"stop_id": 5767, "stop_name": "Câmara Gaia", "zone_id": "VNG1"}, "type": "Feature"}, {"geometry": {"coordinates": [-8.598464, 41.1653], "type": "Point"}, "properties": {"stop_id": 5768, "stop_name": "Combatentes", "zone_id": "PRT1"}, "type": "Feature"}, {"geometry": {"coordinates": [-8.60623, 41.11966], "type": "Point"}, "properties": {"stop_id": 5769, "stop_name": "D. João II", "zone_id": "VNG1"}, "type": "Feature"}, {"geometry": {"coordinates": [-8.609141, 41.15722], "type": "Point"}, "properties": {"stop_id": 5770, "stop_name": "Faria Guimarães", "zone_id": "PRT1"}, "type": "Feature"}, {"geometry": {"coordinates": [-8.607489, 41.13387], "type": "Point"}, "properties": {"stop_id": 5771, "stop_name": "General Torres", "zone_id": "VNG1"}, "type": "Feature"}, {"geometry": {"coordinates": [-8.604521, 41.18125], "type": "Point"}, "properties": {"stop_id": 5772, "stop_name": "IPO", "zone_id": "PRT3"}, "type": "Feature"}, {"geometry": {"coordinates": [-8.608646, 41.13764], "type": "Point"}, "properties": {"stop_id": 5773, "stop_name": "Jardim do Morro", "zone_id": "VNG1"}, "type": "Feature"}, {"geometry": {"coordinates": [-8.605627, 41.12606], "type": "Point"}, "properties": {"stop_id": 5774, "stop_name": "João de Deus", "zone_id": "VNG1"}, "type": "Feature"}, {"geometry": {"coordinates": [-8.604272, 41.16112], "type": "Point"}, "properties": {"stop_id": 5775, "stop_name": "Marquês", "zone_id": "PRT1"}, "type": "Feature"}, {"geometry": {"coordinates": [-8.603607, 41.17425], "type": "Point"}, "properties": {"stop_id": 5776, "stop_name": "Pólo Universitário", "zone_id": "PRT3"}, "type": "Feature"}, {"geometry": {"coordinates": [-8.598744, 41.16969], "type": "Point"}, "properties": {"stop_id": 5777, "stop_name": "Salgueiros", "zone_id": "PRT1"}, "type": "Feature"}, {"geometry": {"coordinates": [-8.610815, 41.14494], "type": "Point"}, "properties": {"stop_id": 5778, "stop_name": "São Bento", "zone_id": "PRT1"}, "type": "Feature"}, {"geometry": {"coordinates": [-8.669442, 41.23708], "type": "Point"}, "properties": {"stop_id": 5782, "stop_name": "Aeroporto", "zone_id": "VCD8"}, "type": "Feature"}, {"geometry": {"coordinates": [-8.665208, 41.23752], "type": "Point"}, "properties": {"stop_id": 5783, "stop_name": "Botica", "zone_id": "VCD8"}, "type": "Feature"}, {"geometry": {"coordinates": [-8.60224, 41.18326], "type": "Point"}, "properties": {"stop_id": 5791, "stop_name": "Hospital São João", "zone_id": "PRT3"}, "type": "Feature"}, {"geometry": {"coordinates": [-8.606555, 41.11555], "type": "Point"}, "properties": {"stop_id": 5792, "stop_name": "Santo Ovídio", "zone_id": "VNG1"}, "type": "Feature"}, {"geometry": {"coordinates": [-8.591075, 41.10576], "type": "Point"}, "properties": {"stop_id": 5811, "stop_name": "Hospital Santos Silva", "zone_id": "VNG2"}, "type": "Feature"}, {"geometry": {"coordinates": [-8.599958, 41.11066], "type": "Point"}, "properties": {"stop_id": 5812, "stop_name": "Manuel Leão", "zone_id": "VNG1"}, "type": "Feature"}, {"geometry": {"coordinates": [-8.588716, 41.09872], "type": "Point"}, "properties": {"stop_id": 5813, "stop_name": "Vila d'Este", "zone_id": "VNG2"}, "type": "Feature"}], "type": "FeatureCollection"}